[
  {
    "name": "beijing-marathon",
    "fullName": "北京马拉松",
    "displayName": "2014北京马拉松",
    "netValue": "04:19:34",
    "orgValue": "04:25:09",
    "type": "marathon",
    "role": "athlete",
    "result": "finished",
    "tags": [
      "PB",
      "首马"
    ],
    "datetime": "2014-10-19 08:00",
    "timestamp": 1413676800000,
    "location": {
      "country": "中国",
      "province": "北京",
      "city": "北京"
    },
    "url": "http://www.beijing-marathon.com/",
    "note": "28km处抽筋"
  },
  {
    "name": "guangzhou-marathon",
    "fullName": "广州马拉松",
    "displayName": "2014广州马拉松赛",
    "netValue": "05:08:52",
    "orgValue": "05:08:52",
    "type": "marathon",
    "role": "athlete",
    "result": "finished",
    "tags": [
      "PW"
    ],
    "datetime": "2014-11-23 08:00",
    "timestamp": 1416700800000,
    "location": {
      "country": "中国",
      "province": "广东",
      "city": "广州"
    },
    "url": "http://www.guangzhou-marathon.com/",
    "note": "没有起点计时毯"
  },
  {
    "name": "xiamen-marathon",
    "fullName": "厦门国际马拉松",
    "displayName": "2015厦门国际马拉松赛",
    "netValue": "05:03:05",
    "orgValue": "05:19:51",
    "type": "marathon",
    "role": "athlete",
    "result": "finished",
    "tags": [
      "跑团",
      "北航马协"
    ],
    "datetime": "2015-01-03 08:00",
    "timestamp": 1420243200000,
    "location": {
      "country": "中国",
      "province": "福建",
      "city": "厦门"
    },
    "url": "http://www.xmim.org/",
    "note": "因为北航马协小伙伴们而去参加；田老师带队，北航参加高校邀请赛"
  },
  {
    "name": "beijing-marathon",
    "fullName": "北京马拉松",
    "displayName": "2015北京马拉松",
    "netValue": "04:27:20",
    "orgValue": "04:28:45",
    "type": "marathon",
    "role": "athlete",
    "result": "finished",
    "tags": [],
    "datetime": "2015-09-20 07:30",
    "timestamp": 1442705400000,
    "location": {
      "country": "中国",
      "province": "北京",
      "city": "北京"
    },
    "url": "http://www.beijing-marathon.com/",
    "note": ""
  },
  {
    "name": "nanjing-marathon",
    "fullName": "南京国际马拉松",
    "displayName": "2015南京国际马拉松赛",
    "netValue": "04:34:23",
    "orgValue": "04:34:43",
    "type": "marathon",
    "role": "athlete",
    "result": "finished",
    "tags": [],
    "datetime": "2015-11-29 08:30",
    "timestamp": 1448757000000,
    "location": {
      "country": "中国",
      "province": "江苏",
      "city": "南京"
    },
    "url": "http://www.nj-marathon.org/",
    "note": ""
  },
  {
    "name": "xiamen-marathon",
    "fullName": "厦门国际马拉松",
    "displayName": "2016厦门国际马拉松赛",
    "netValue": "04:18:56",
    "orgValue": "04:31:43",
    "type": "marathon",
    "role": "athlete",
    "result": "finished",
    "tags": [
      "PB",
      "跑团"
    ],
    "datetime": "2016-01-02 08:00",
    "timestamp": 1451692800000,
    "location": {
      "country": "中国",
      "province": "福建",
      "city": "厦门"
    },
    "url": "http://www.xmim.org/en/",
    "note": "带 OneAPM 跑团成员跑马拉松（第一次比赛）"
  },
  {
    "name": "wuxi-marathon",
    "fullName": "无锡国际马拉松",
    "displayName": "2016无锡国际马拉松赛",
    "netValue": "04:11:59",
    "orgValue": "04:18:04",
    "type": "marathon",
    "role": "athlete",
    "result": "finished",
    "tags": [
      "PB"
    ],
    "datetime": "2016-03-20 08:00",
    "timestamp": 0,
    "location": {
      "country": "中国",
      "province": "江苏",
      "city": "无锡"
    },
    "url": "http://wuximarathon.com/",
    "note": ""
  },
  {
    "name": "chengdushuangyi-marathon",
    "fullName": "成都双遗马拉松",
    "displayName": "2016成都双遗马拉松赛",
    "netValue": "04:07:33",
    "orgValue": "04:08:07",
    "type": "marathon",
    "role": "athlete",
    "result": "finished",
    "tags": [
      "PB",
      "跑团"
    ],
    "datetime": "2016-03-27 08:00",
    "timestamp": 1459036800000,
    "location": {
      "country": "中国",
      "province": "四川",
      "city": "都江堰"
    },
    "url": "http://www.cd42195.com/",
    "note": "带 OneAPM 跑团成员跑马拉松（多人参赛）"
  },
  {
    "name": "dalian-marathon",
    "fullName": "大连国际马拉松",
    "displayName": "2016大连国际马拉松赛",
    "netValue": "04:11:45",
    "orgValue": "04:13:00",
    "type": "marathon",
    "role": "athlete",
    "result": "finished",
    "tags": [],
    "datetime": "2016-05-22 08:00",
    "timestamp": 1463875200000,
    "location": {
      "country": "中国",
      "province": "辽宁",
      "city": "大连"
    },
    "url": "http://www.dlmls.org/portal/",
    "note": "海边城市，真热"
  },
  {
    "name": "beijing-marathon",
    "fullName": "北京马拉松",
    "displayName": "2016北京马拉松",
    "netValue": "04:11:19",
    "orgValue": "04:11:19",
    "type": "marathon",
    "role": "athlete",
    "result": "finished",
    "tags": [
      "no-score"
    ],
    "datetime": "2016-09-17 07：30",
    "timestamp": 1474068600000,
    "location": {
      "country": "中国",
      "province": "北京",
      "city": "北京"
    },
    "url": "http://www.beijing-marathon.com/",
    "note": ""
  },
  {
    "name": "hengshuihu-marathon",
    "fullName": "衡水湖国际马拉松",
    "displayName": "2016衡水湖国际马拉松赛",
    "netValue": "04:18:59",
    "orgValue": "04:18:59",
    "type": "marathon",
    "role": "athlete",
    "result": "finished",
    "tags": [
      "no-score",
      "跑团",
      "北航马协"
    ],
    "datetime": "2016-09-24 07:30",
    "timestamp": 1474673400000,
    "location": {
      "country": "中国",
      "province": "河北",
      "city": "衡水"
    },
    "url": "http://hengshuimalasong.com/",
    "note": "北航马协组织一起参赛，校友会大力支持；没有成绩：可能是芯片坏掉，过终点后没有收到芝华安方的成绩短信；之后联系组委会并配合提供分段成绩、赛道中照片等，然而并没有什么用，成绩依然没给加上"
  },
  {
    "name": "shanghai-marathon",
    "fullName": "上海国际马拉松",
    "displayName": "2016上海国际马拉松赛",
    "netValue": "04:51:46",
    "orgValue": "05:00:48",
    "type": "marathon",
    "role": "athlete",
    "result": "finished",
    "tags": [],
    "datetime": "2016-10-30 08:00",
    "timestamp": 1477785600000,
    "location": {
      "country": "中国",
      "province": "上海",
      "city": "上海"
    },
    "url": "http://www.shang-ma.com/",
    "note": ""
  },
  {
    "name": "hangzhou-marathon",
    "fullName": "杭州马拉松",
    "displayName": "2016杭州马拉松",
    "netValue": "05:15:04",
    "orgValue": "05:16:12",
    "type": "marathon",
    "role": "athlete",
    "result": "finished",
    "tags": [
      "current-PW"
    ],
    "datetime": "2016-11-06 08:00",
    "timestamp": 1478390400000,
    "location": {
      "country": "中国",
      "province": "浙江",
      "city": "杭州"
    },
    "url": "http://www.hzim.org/",
    "note": ""
  },
  {
    "name": "xiamen-marathon",
    "fullName": "厦门国际马拉松",
    "displayName": "2017厦门建发国际马拉松赛",
    "netValue": "03:41:07",
    "orgValue": "03:53:45",
    "type": "marathon",
    "role": "athlete",
    "result": "finished",
    "tags": [
      "PB",
      "current-PB"
    ],
    "datetime": "2017-01-02 08:00",
    "timestamp": 1483315200000,
    "location": {
      "country": "中国",
      "province": "福建",
      "city": "厦门"
    },
    "url": "http://www.xmim.org/",
    "note": "跑得不好，依然大PB；感谢 CPT 和体科所"
  },
  {
    "name": "qinhuangdao-marathon",
    "fullName": "秦皇岛国际马拉松",
    "displayName": "2017秦皇岛国际马拉松",
    "netValue": "03:58:38",
    "orgValue": "04:02:03",
    "type": "marathon",
    "role": "athlete",
    "result": "finished",
    "tags": [],
    "datetime": "2017-05-14 08:00",
    "timestamp": 1494720000000,
    "location": {
      "country": "中国",
      "province": "河北",
      "city": "秦皇岛"
    },
    "url": "http://www.qhdmarathon.com/",
    "note": "就一个字：热；好久不练，状态确实差"
  }
]
